     2.10           OBSERVATION DATA    G (GPS)             RINEX VERSION / TYPE
JPS2RIN 1.05        RUN BY              19-DEC-01 19:12     PGM / RUN BY / DATE
build August 8, 2000                                        COMMENT
RUN BY;COMMENT;MARKER NAME;MARKER NUMBER;OBSERVER;AGENCY;   COMMENT
ANT #;ANT TYPE - You can set in profile.                    COMMENT
kai190001.jps                                               COMMENT
Site                                                        MARKER NAME
                                                            MARKER NUMBER
OBSERVER            AGENCY                                  OBSERVER / AGENCY
MT301513219         JPS EUROCARD        2.2 Apr,25,2001 r   REC # / TYPE / VERS
kai190001           -Unknown-                               ANT # / TYPE
  3427846.1390   603878.7940  5326832.6573                  APPROX POSITION XYZ
        0.0000        0.0000        0.0000                  ANTENNA: DELTA H/E/N
     1     1                                                WAVELENGTH FACT L1/2
     7    L1    L2    C1    P1    P2    D1    D2            # / TYPES OF OBSERV
  2001    12    19    14    50    0.0000000     GPS         TIME OF FIRST OBS
  2001    12    19    14    54   59.0000000     GPS         TIME OF LAST OBS
     1.000                                                  INTERVAL
    13                                                      LEAP SECONDS
    10                                                      # OF SATELLITES
   G 1   300   300   300   300   300   300   300            PRN / # OF OBS
   G 5   300   300   300   300   300   300   300            PRN / # OF OBS
   G 6   300   300   300   300   300   300   300            PRN / # OF OBS
   G10   300   300   300   300   300   300   300            PRN / # OF OBS
   G17   300   282   300   282   282   300   282            PRN / # OF OBS
   G22   300     0   300     0     0   300     0            PRN / # OF OBS
   G24   300   300   300   300   300   300   300            PRN / # OF OBS
   G25   300   300   300   300   300   300   300            PRN / # OF OBS
   G29   170     0   170     0     0   170     0            PRN / # OF OBS
   G30   300   300   300   300   300   300   300            PRN / # OF OBS
                                                            END OF HEADER
 01 12 19 14 50  0.0000000  0  9G 5G17G10G 6G30G24G25G22G 1         
 123614618.465    96323090.1984   23523078.901 6  23523078.78842  23523087.00343
     -3021.759       -2354.621  
 134980743.981         nan        25685979.988 5      nan            nan                          
      4131.358         nan         
 132377057.051   103150941.2324   25190507.332 6  25190506.48442  25190514.54242
      3356.870        2615.712  
 108612428.607    84633078.9904   20668255.643 8  20668255.31945  20668260.83045
      1200.055         935.094  
 109156302.846    85056874.1384   20771752.790 8  20771752.63945  20771757.02645
     -1510.410       -1176.949  
 121475475.039    94656234.8694   23116014.222 7  23116013.00243  23116019.42543
     -1574.994       -1227.265  
 114629155.555    89321435.7604   21813200.895 7  21813200.56145  21813206.46745
      1241.793         967.635  
 129321606.585        nan         24609078.142 4      nan             nan             
      4103.723        nan          
 130853228.977   101963557.4694   24900543.214 6  24900542.41941  24900548.80542
      2028.666        1580.765  
 01 12 19 14 50  1.0000000  0  9G 5G17G10G 6G30G24G25G22G 1         
 123617640.289    96325444.8694   23523655.028 7  23523654.12342  23523662.69543
     -3021.374       -2354.330  
 134976612.812        nan         25685194.155 5     nan               nan                           
      4131.774        nan          
 132373700.406   103148325.6754   25189868.428 6  25189868.25842  25189875.94142
      3356.840        2615.769  
 108611228.695    84632143.9974   20668027.424 7  20668026.96445  20668032.57445
      1200.101         935.144  
 109157813.456    85058051.2364   20772040.017 8  20772040.05146  20772044.65746
     -1510.341       -1176.887  
 121477050.156    94657462.2364   23116313.739 7  23116312.47043  23116318.83243
     -1574.831       -1227.125  
 114627914.046    89320468.3504   21812964.426 7  21812964.15345  21812970.06945
      1241.717         967.569  
 129317502.617        nan         24608297.241 4       nan            nan             
      4104.021        nan          
 130851200.487   101961976.8224   24900157.607 6  24900155.56641  24900162.52242
      2028.392        1580.589  
 01 12 19 14 50  2.0000000  0  9G 5G17G10G 6G30G24G25G22G 1         
 123620662.356    96327799.7184   23524229.532 6  23524228.94042  23524237.49443
     -3022.250       -2354.989  
 134972481.632         nan        25684408.166 5      nan             nan             
      4131.102         nan         
 132370344.048   103145710.3564   25189230.833 6  25189229.41642  25189236.62642
      3356.006        2615.040  
 108610029.357    84631209.4504   20667799.099 8  20667798.76645  20667804.46445
      1198.794         934.122  
 109159324.578    85059228.7344   20772327.405 8  20772327.52045  20772332.22845
     -1511.698       -1177.945  
 121478625.885    94658690.0764   23116613.398 7  23116612.84243  23116618.85043
     -1576.373       -1228.370  
 114626673.213    89319501.4764   21812728.234 7  21812728.02945  21812733.91445
      1240.193         966.373  
 129313398.832        nan         24607515.329 4      nan            nan              
      4103.666        nan          
 130849172.554   101960396.6214   24899771.033 6  24899769.68341  24899776.95942
      2027.404        1579.769  
 01 12 19 14 50  3.0000000  0  9G 5G17G10G 6G30G24G25G22G 1         
 123623684.975    96330154.9934   23524804.563 6  23524804.49942  23524812.20543
     -3022.860       -2355.493  
 134968350.779        nan         25683622.114 5        nan          nan              
      4130.504        nan          
 132366988.286   103143095.4834   25188591.804 6  25188590.89142  25188597.37142
      3355.587        2614.752  
 108608830.878    84630275.5734   20667570.994 8  20667570.67645  20667576.54945
      1198.129         933.599  
 109160836.534    85060406.8824   20772615.312 8  20772615.37645  20772619.83546
     -1512.230       -1178.370  
 121480202.478    94659918.5904   23116913.672 7  23116912.82843  23116918.74943
     -1576.838       -1228.717  
 114625433.340    89318535.3384   21812492.143 7  21812492.03545  21812497.74645
      1239.583         965.912  
 129309295.507       nan          24606733.572 4    nan              nan              
      4103.938       nan           
 130847145.499   101958817.0954   24899383.859 6  24899384.17341  24899391.72642
      2027.091        1579.517  
 01 12 19 14 50  4.0000000  0  9G 5G17G10G 6G30G24G25G22G 1         
 123626707.772    96332510.4364   23525379.261 6  23525379.50642  23525387.83442
     -3023.023       -2355.597  
 134964220.042       nan          25682835.794 6       nan             nan            
      4130.701       nan           
 132363632.869   103140480.8624   25187952.887 6  25187951.98142  25187958.30042
      3354.995        2614.299  
 108607632.963    84629342.1304   20667342.935 8  20667342.68945  20667348.40645
      1197.441         933.092  
 109162349.011    85061585.4364   20772903.420 8  20772903.25846  20772907.65946
     -1512.989       -1178.948  
 121481779.692    94661147.5884   23117213.437 7  23117212.84743  23117219.11943
     -1577.763       -1229.426  
 114624194.133    89317569.7264   21812256.364 7  21812256.23245  21812261.93445
      1238.593         965.141  
 129305192.275       nan          24605956.520 4        nan          nan              
      4102.791       nan           
 130845119.121   101957238.0934   24898999.082 6  24898999.02941  24899006.42042
      2025.784        1578.520  
 01 12 19 14 50  5.0000000  0  9G 5G17G10G 6G30G24G25G22G 1         
 123629730.667    96334865.9394   23525955.193 6  23525955.24242  23525963.42342
     -3023.337       -2355.859  
 134960089.096      nan           25682049.476 6      nan           nan               
      4130.810      nan            
 132360277.575   103137866.3254   25187314.415 6  25187313.61642  25187320.46442
      3354.964        2614.279  
 108606435.442    84628408.9984   20667115.240 8  20667114.77845  20667120.53545
      1197.059         932.786  
 109163861.843    85062764.2704   20773191.436 8  20773191.22346  20773195.56246
     -1513.300       -1179.182  
 121483357.327    94662376.9264   23117513.363 7  23117512.70643  23117519.24043
     -1578.143       -1229.678  
 114622955.422    89316604.5014   21812020.827 7  21812020.34445  21812026.26545
      1238.166         964.828  
 129301089.052         nan        24605172.212 4          nan         nan             
      4102.927         nan         
 130843093.157   101955659.4194   24898614.325 6  24898612.28041  24898621.24142
      2025.443        1578.308  
 01 12 19 14 50  6.0000000  0  9G 5G17G10G 6G30G24G25G22G 1         
 123632754.222    96337221.9604   23526529.947 6  23526529.93942  23526538.01142
     -3023.964       -2356.319  
 134955958.568       nan          25681263.849 6        nan          nan              
      4130.225       nan           
 132356923.003   103135252.3784   25186675.826 6  25186675.26842  25186682.58942
      3354.033        2613.518  
 108605238.909    84627476.6364   20666887.400 8  20666887.12045  20666892.68545
      1195.873         931.861  
 109165375.626    85063943.8394   20773479.586 8  20773479.27546  20773483.60946
     -1514.373       -1180.025  
 121484935.947    94663607.0204   23117814.007 7  23117813.33443  23117819.70643
     -1579.073       -1230.443  
 114621717.777    89315640.1044   21811785.066 8  21811784.74344  21811790.86244
      1237.042         963.937  
 129296986.459          nan       24604391.512 4        nan          nan              
      4102.010          nan       
 130841068.222   101954081.5614   24898228.605 6  24898226.55341  24898235.77841
      2024.142        1577.178  
 01 12 19 14 50  7.0000000  0  9G 5G17G10G 6G30G24G25G22G 1         
 123635778.477    96339578.5134   23527105.674 6  23527105.41442  23527113.21742
     -3024.882       -2357.060  
 134951828.597         nan        25680478.594 6         nan         nan              
      4129.460         nan         
 132353569.223   103132639.0454   25186038.272 6  25186037.70942  25186044.37942
      3353.235        2612.921  
 108604043.414    84626545.0854   20666659.890 8  20666659.50045  20666665.20245
      1194.800         931.002  
 109166890.408    85065124.1914   20773767.857 8  20773767.51746  20773771.93446
     -1515.393       -1180.845  
 121486515.668    94664837.9694   23118114.159 7  23118113.66243  23118120.51543
     -1580.408       -1231.493  
 114620481.300    89314676.6234   21811549.754 7  21811549.46544  21811555.62644
      1235.843         962.994  
 129292884.375         nan        24603611.857 4        nan             nan           
      4101.336         nan         
 130839044.370   101952504.5254   24897844.105 6  24897841.47741  24897851.63441
      2023.295        1576.593  
 01 12 19 14 50  8.0000000  0  9G 5G17G10G 6G30G24G25G22G 1         
 123638803.151    96341935.4014   23527681.628 6  23527681.31242  23527688.13542
     -3025.008       -2357.164  
 134947698.789         nan        25679691.794 6        nan            nan            
      4129.547         nan         
 132350215.948   103130026.1114   25185400.166 6  25185398.87642  25185406.74442
      3352.914        2612.682  
 108602848.676    84625614.1234   20666432.649 8  20666432.18845  20666437.91845
      1194.220         930.568  
 109168405.902    85066305.0944   20774056.398 8  20774056.01245  20774060.29146
     -1516.038       -1181.316  
 121488096.160    94666069.5194   23118414.894 7  23118414.80443  23118420.97243
     -1580.968       -1231.904  
 114619245.656    89313713.7844   21811314.753 7  21811314.38544  21811320.66545
      1235.086         962.420  
 129288782.595          nan       24602832.366 4       nan             nan            
      4101.216          nan        
 130837021.282   101950928.0904   24897458.347 6  24897456.22441  24897465.63641
      2022.787        1576.195  
 01 12 19 14 50  9.0000000  0  9G 5G17G10G 6G30G24G25G22G 1         
 123641828.235    96344292.6114   23528257.495 6  23528256.72742  23528264.13542
     -3025.552       -2357.594  
 134943569.199         nan        25678905.562 6          nan             nan         
      4129.353         nan         
 132346863.125   103127413.5234   25184761.858 6  25184760.75042  25184769.43042
      3352.614        2612.414  
 108601654.661    84624683.7224   20666205.420 7  20666205.00645  20666210.86145
      1193.570         930.042  
 109169922.099    85067486.5444   20774344.769 8  20774344.68546  20774348.56946
     -1516.683       -1181.829  
 121489677.404    94667301.6604   23118716.204 7  23118715.59043  23118721.75343
     -1581.649       -1232.447  
 114618010.854    89312751.5994   21811079.865 8  21811079.66644  21811085.61045
      1234.227         961.726  
 129284681.163       nan          24602050.529 4         nan            nan           
      4101.498       nan           
 130834998.979   101949352.2714   24897073.180 6  24897071.60841  24897080.03941
      2021.894        1575.494  
 01 12 19 14 50 10.0000000  0  9G 5G17G10G 6G30G24G25G22G 1         
 123644853.924    96346650.2894   23528832.650 6  23528832.51042  23528840.22342
     -3025.762       -2357.721  
 134939439.969         nan        25678119.918 6        nan           nan             
      4129.521         nan            
 132343511.007   103124801.5024   25184124.223 6  25184122.67642  25184131.70142
      3351.866        2611.740  
 108600461.587    84623754.0614   20665978.606 8  20665977.93745  20665983.87845
      1192.912         929.535  
 109171439.202    85068668.7044   20774633.118 8  20774633.26845  20774637.25145
     -1517.205       -1182.253  
 121491259.631    94668534.5744   23119017.118 7  23119016.68943  23119022.95843
     -1582.423       -1233.042  
 114616777.084    89311790.2274   21810845.159 7  21810844.85445  21810850.77645
      1233.552         961.190  
 129280580.306         nan        24601270.037 4          nan        nan              
      4100.582         nan          
 130832977.649   101947777.1894   24896689.062 6  24896687.00041  24896694.11841
      2021.208        1574.991  
 01 12 19 14 50 11.0000000  0  9G 5G17G10G 6G30G24G25G22G 1         
 123647879.694    96349008.0214   23529409.894 6  23529408.42642  23529416.06942
     -3025.694       -2357.660  
 134935310.654         nan        25677334.086 6        nan             nan           
      4129.698         nan          
 132340159.033   103122189.5624   25183486.150 6  25183484.22942  25183493.51342
      3351.997        2611.928  
 108599268.923    84622824.7114   20665751.559 8  20665751.18645  20665756.82545
      1192.642         929.341  
 109172956.674    85069851.1474   20774921.914 8  20774922.10045  20774926.14046
     -1517.457       -1182.434  
 121492842.258    94669767.7764   23119317.550 7  23119317.92843  23119324.16943
     -1582.666       -1233.233  
 114615543.824    89310829.2474   21810610.249 8  21810610.10045  21810616.03945
      1233.104         960.859  
 129276479.448         nan        24600490.397 4           nan            nan         
      4101.221         nan        
 130830956.794   101946202.5004   24896304.241 6  24896302.59341  24896309.65841
      2020.779        1574.645  
 01 12 19 14 50 12.0000000  0  9G 5G17G10G 6G30G24G25G22G 1         
 123650906.026    96351366.2024   23529986.243 7  23529984.59242  23529992.03742
     -3026.657       -2358.405  
 134931181.685        nan         25676548.669 6        nan              nan          
      4128.661        nan          
 132336807.738   103119578.1734   25182848.651 6  25182846.34542  25182855.71642
      3350.878        2610.988  
 108598077.177    84621896.0804   20665524.321 7  20665524.35945  20665530.05545
      1191.334         928.310  
 109174475.027    85071034.2794   20775211.171 8  20775211.03946  20775215.08246
     -1518.809       -1183.484  
 121494425.841    94671001.7384   23119619.021 7  23119619.01043  23119625.42343
     -1583.993       -1234.296  
 114614311.583    89309869.0604   21810376.052 7  21810375.68945  21810381.54745
      1231.693         959.759  
 129272378.941         nan        24599708.518 4         nan            nan           
      4100.306         nan         
 130828936.867   101944628.5214   24895920.268 6  24895917.86341  24895925.80641
      2019.736        1573.843  
 01 12 19 14 50 13.0000000  0  9G 5G17G10G 6G30G24G25G22G 1         
 123653932.035    96353724.1184   23530560.423 6  23530559.87742  23530568.20542
     -3025.927       -2357.867  
 134927052.203        nan         25675763.208 6         nan           nan            
      4129.631        nan          
 132333456.152   103116966.5594   25182211.148 6  25182208.69742  25182217.15442
      3351.577        2611.594  
 108596885.425    84620967.4444   20665297.485 8  20665297.41945  20665303.11345
      1191.612         928.557  
 109175993.325    85072217.3704   20775499.872 8  20775500.06246  20775503.93946
     -1518.381       -1183.146  
 121496009.447    94672235.7254   23119920.591 7  23119919.74343  23119926.78443
     -1583.789       -1234.128  
 114613079.427    89308908.9394   21810141.884 7  21810141.34144  21810146.99745
      1231.997         960.009  
 129268278.162        nan         24598927.875 4        nan           nan             
      4101.251        nan          
 130826917.019   101943054.6034   24895535.245 6  24895533.84141  24895542.19041
      2019.658        1573.803  
 01 12 19 14 50 14.0000000  0  9G 5G17G10G 6G30G24G25G22G 1         
 123656958.566    96356082.4714   23531136.966 6  23531135.92742  23531144.03142
     -3026.804       -2358.530  
 134922922.988        nan         25674977.665 6       nan              nan           
      4129.307        nan          
 132330105.188   103114355.4164   25181573.582 6  25181571.50742  25181579.85942
      3350.748        2610.952  
 108595694.537    84620039.4824   20665070.751 8  20665070.74345  20665076.61845
      1190.540         927.684  
 109177512.462    85073401.1144   20775788.964 8  20775789.11146  20775793.10846
     -1519.436       -1183.979  
 121497593.949    94673470.4014   23120222.299 7  23120221.59043  23120228.48943
     -1584.791       -1234.892  
 114611848.245    89307949.5824   21809907.264 7  21809906.99144  21809912.62345
      1230.836         959.095  
 129264177.796          nan       24598145.775 4        nan             nan           
      4099.432          nan        
 130824898.043   101941481.4034   24895151.208 6  24895149.51841  24895159.21141
      2018.584        1572.963  
 01 12 19 14 50 15.0000000  0  9G 5G17G10G 6G30G24G25G22G 1         
 123659985.299    96358440.9724   23531713.476 6  23531712.00642  23531720.65242
     -3026.836       -2358.588  
 134918793.775         nan        25674191.450 6           nan            nan         
      4129.336         nan         
 132326754.491   103111744.4984   25180935.102 6  25180933.87242  25180941.26942
      3350.624        2610.839  
 108594504.174    84619111.9254   20664844.582 7  20664844.22345  20664850.16945
      1190.144         927.387  
 109179032.072    85074585.2224   20776078.315 8  20776078.18946  20776082.44646
     -1519.799       -1184.251  
 121499178.966    94674705.4794   23120524.089 7  23120523.17843  23120529.76543
     -1585.229       -1235.253  
 114610617.668    89306990.6914   21809672.982 7  21809672.76644  21809678.27545
      1230.240         958.624  
 129260077.507         nan        24597365.464 4         nan            nan           
      4100.546         nan         
 130822879.624   101939908.5974   24894767.143 6  24894766.27641  24894775.14241
      2018.239        1572.673  
 01 12 19 14 50 16.0000000  0  9G 5G17G10G 6G30G24G25G22G 1         
 123663012.272    96360799.6464   23532289.720 6  23532288.27442  23532296.88242
     -3026.927       -2358.621  
 134914664.631        nan         25673405.497 6        nan            nan            
      4129.485        nan          
 132323404.111   103109133.8234   25180297.061 6  25180296.48242  25180303.17342
      3350.575        2610.780  
 108593314.379    84618184.8134   20664618.477 8  20664617.76245  20664623.72245
      1189.763         927.087  
 109180552.233    85075769.7684   20776367.843 8  20776367.35446  20776371.75246
     -1520.130       -1184.514  
 121500764.614    94675941.0434   23120825.728 7  23120825.21943  23120831.14443
     -1585.692       -1235.604  
 114609387.775    89306032.3384   21809439.176 8  21809438.61244  21809444.22945
      1229.892         958.356  
 129255977.263         nan        24596584.226 4           nan            nan         
      4101.347         nan         
 130820861.862   101938336.3084   24894383.800 6  24894382.05441  24894391.45541
      2017.668        1572.267  
 01 12 19 14 50 17.0000000  0  9G 5G17G10G 6G30G24G25G22G 1         
 123666039.100    96363158.2064   23532865.877 6  23532864.11942  23532872.62542
     -3027.137       -2358.760  
 134910535.124         nan        25672619.791 6         nan            nan           
      4129.222         nan         
 132320053.681   103106523.1014   25179659.550 6  25179659.56242  25179666.25942
      3350.169        2610.568  
 108592124.768    84617257.8444   20664392.193 7  20664391.52545  20664397.28545
      1189.234         926.664  
 109182072.511    85076954.3994   20776656.744 8  20776656.64845  20776660.98246
     -1520.622       -1184.918  
 121502350.462    94677176.7724   23121128.006 7  23121127.82543  23121132.46143
     -1586.401       -1236.146  
 114608158.162    89305074.1944   21809205.097 8  21809204.72545  21809210.38444
      1229.183         957.798  
 129251876.873         nan        24595801.633 4          nan         nan             
      4100.034         nan         
 130818844.269   101936764.1494   24893999.154 6  24893998.52841  24894007.60041
      2017.151        1571.827  
 01 12 19 14 50 18.0000000  0  9G 5G17G10G 6G30G24G25G22G 1         
 123669066.273    96365517.0334   23533441.531 6  23533439.99642  23533448.64342
     -3027.368       -2358.939  
 134906405.776   105121883.0374   25671834.269 6  25671834.39541  25671846.26241
      4129.107        3217.540  
 132316703.648   103103912.6954   25179022.105 6  25179021.27942  25179029.77842
      3349.948        2610.355  
 108590935.854    84616331.4214   20664165.705 7  20664165.10545  20664170.99745
      1188.545         926.144  
 109183593.463    85078139.5584   20776946.048 8  20776946.10346  20776950.54146
     -1521.373       -1185.487  
 121503937.023    94678413.0594   23121429.855 7  23121429.79943  23121434.93043
     -1587.016       -1236.653  
 114606929.349    89304116.6784   21808971.077 7  21808970.88745  21808976.74044
      1228.355         957.162  
 129247776.781        nan         24595023.792 4         nan            nan           
      4100.289        nan          
 130816827.448   101935192.6014   24893615.539 6  24893614.67741  24893622.67641
      2016.509        1571.323  
 01 12 19 14 50 19.0000000  0  9G 5G17G10G 6G30G24G25G22G 1         
 123672093.732    96367876.0914   23534017.681 6  23534016.43242  23534023.69842
     -3027.700       -2359.227  
 134902276.456   105118665.3674   25671048.092 6  25671048.11541  25671059.27741
      4129.071        3217.470  
 132313354.000   103101302.5774   25178384.516 6  25178383.63242  25178391.93542
      3349.410        2609.925  
 108589747.545    84615405.4634   20663939.091 8  20663938.87345  20663944.80745
      1187.973         925.691  
 109185114.992    85079325.1674   20777235.342 8  20777235.63646  20777239.92645
     -1521.975       -1185.953  
 121505524.225    94679649.8424   23121732.063 7  23121731.47343  23121737.22543
     -1587.755       -1237.187  
 114605701.224    89303159.7034   21808737.446 7  21808737.29144  21808743.16445
      1227.808         956.725  
 129243676.745         nan        24594245.549 4       nan              nan           
      4099.953         nan         
 130814811.245   101933621.5444   24893230.977 6  24893231.32941  24893239.25341
      2015.668        1570.600  
 01 12 19 14 50 20.0000000  0  9G 5G17G10G 6G30G24G25G22G 1         
 123675121.603    96370235.4694   23534593.313 6  23534593.06542  23534600.06342
     -3028.215       -2359.682  
 134898147.324   105115447.8794   25670262.326 6  25670261.80441  25670273.55441
      4128.864        3217.314  
 132310004.803   103098692.8224   25177746.928 6  25177746.22942  25177754.99742
      3348.901        2609.511  
 108588559.958    84614480.0734   20663713.087 7  20663712.98345  20663718.85945
      1187.166         925.082  
 109186637.205    85080511.3074   20777525.070 8  20777525.27546  20777529.68946
     -1522.620       -1186.461  
 121507112.182    94680887.2054   23122034.329 7  23122033.83843  23122039.42743
     -1588.333       -1237.646  
 114604473.947    89302203.3874   21808503.798 7  21808503.75044  21808509.45745
      1226.819         955.958  
 129239577.210         nan        24593463.551 4         nan           nan            
      4099.395         nan         
 130812795.845   101932051.1024   24892848.188 6  24892847.04541  24892856.31941
      2015.115        1570.246  
 01 12 19 14 50 21.0000000  0  9G 5G17G10G 6G30G24G25G22G 1         
 123678149.917    96372595.1974   23535169.785 6  23535169.57942  23535176.55042
     -3028.735       -2360.049  
 134894018.459   105112230.5984   25669476.592 6  25669476.34341  25669489.01441
      4128.812        3217.254  
 132306656.164   103096083.4934   25177109.445 6  25177109.71742  25177118.48542
      3348.154        2609.015  
 108587373.166    84613555.3074   20663487.360 8  20663487.07545  20663493.01245
      1186.298         924.387  
 109188160.163    85081698.0324   20777814.883 8  20777814.94946  20777819.51746
     -1523.431       -1187.093  
 121508700.938    94682125.2004   23122336.239 7  23122335.74743  23122342.03743
     -1589.275       -1238.414  
 114603247.548    89301247.7504   21808270.728 7  21808270.53644  21808276.14245
      1225.735         955.117  
 129235477.931        nan         24592682.329 4       nan              nan           
      4099.239        nan          
 130810781.260   101930481.3074   24892465.034 6  24892464.45041  24892472.81141
      2014.028        1569.385  
 01 12 19 14 50 22.0000000  0  9G 5G17G10G 6G30G24G25G22G 1         
 123681178.841    96374955.3854   23535746.771 6  23535746.20942  23535752.45242
     -3028.675       -2359.970  
 134889890.038   105109013.6784   25668691.444 6  25668690.48341  25668702.09241
      4128.647        3217.094  
 132303308.235   103093474.7024   25176472.438 6  25176472.60242  25176481.68942
      3347.846        2608.716  
 108586187.331    84612631.2814   20663261.800 7  20663261.54445  20663267.37245
      1185.971         924.127  
 109189684.054    85082885.4774   20778104.763 8  20778104.86845  20778109.49846
     -1523.750       -1187.339  
 121510290.704    94683363.9904   23122638.810 7  23122638.20543  23122644.62043
     -1589.629       -1238.683  
 114602022.210    89300292.9354   21808037.722 7  21808037.14444  21808042.91745
      1225.330         954.794  
 129231379.175          nan       24591902.731 3        nan               nan         
      4099.519          nan        
 130808767.665   101928912.2494   24892081.755 6  24892080.49541  24892089.36741
      2013.623        1569.104  
 01 12 19 14 50 23.0000000  0  9G 5G17G10G 6G30G24G25G22G 1         
 123684207.738    96377315.5764   23536323.615 6  23536322.61742  23536328.47342
     -3029.164       -2360.380  
 134885761.352   105105796.5744   25667905.945 6  25667905.38241  25667916.49541
      4128.449        3216.870  
 132299960.320   103090865.9324   25175835.300 6  25175834.97242  25175844.50242
      3347.330        2608.262  
 108585001.802    84611707.4974   20663036.032 8  20663035.99645  20663041.73245
      1185.036         923.412  
 109191208.198    85084073.1234   20778394.694 8  20778394.95046  20778399.55446
     -1524.635       -1188.024  
 121511880.795    94684603.0234   23122941.572 7  23122940.66943  23122947.18943
     -1590.598       -1239.394  
 114600797.272    89299338.4474   21807804.588 7  21807804.10144  21807809.84844
      1224.384         954.063  
 129227280.346         nan        24591123.645 3        nan          nan                  
      4098.239          nan          
 130806754.408   101927343.4534   24891698.293 6  24891696.78541  24891707.12541
      2012.677        1568.380  
 01 12 19 14 50 24.0000000  0  9G 5G17G10G 6G30G24G25G22G 1         
 123687237.053    96379676.0684   23536899.849 6  23536898.50842  23536905.57642
     -3029.414       -2360.540  
 134881632.883   105102579.5914   25667120.415 6  25667119.57341  25667133.13341
      4128.266        3216.826  
 132296612.903   103088257.5654   25175198.857 6  25175197.97442  25175207.14042
      3347.265        2608.250  
 108583816.997    84610784.2714   20662810.712 8  20662810.54345  20662816.25045
      1184.594         923.056  
 109192733.040    85085261.3064   20778685.230 8  20778685.22545  20778689.54046
     -1525.121       -1188.409  
 121513471.630    94685842.6274   23123244.278 7  23123243.40343  23123249.82743
     -1591.171       -1239.888  
 114599573.154    89298384.5904   21807571.434 7  21807570.97744  21807576.71944
      1223.792         953.605  
 129223181.814          nan       24590344.047 3    nan                 nan                            
      4099.149      nan            
 130804741.934   101925775.2954   24891315.067 6  24891314.51441  24891323.85941
      2012.158        1567.910  
 01 12 19 14 50 25.0000000  0  9G 5G17G10G 6G30G24G25G22G 1         
 123690266.764    96382036.8844   23537476.136 6  23537475.19042  23537481.76042
     -3029.851       -2360.980  
 134877504.595   105099362.7594   25666335.034 6  25666333.32341  25666346.27841
      4128.381        3216.907  
 132293265.963   103085649.5524   25174562.997 6  25174560.99642  25174569.84342
      3346.824        2607.868  
 108582632.951    84609861.6444   20662585.528 8  20662585.28345  20662591.02045
      1183.758         922.418  
 109194258.581    85086450.0444   20778975.760 8  20778975.59246  20778979.98146
     -1525.879       -1188.989  
 121515063.266    94687082.8674   23123547.355 7  23123546.41243  23123552.30643
     -1591.998       -1240.502  
 114598349.917    89297431.4214   21807338.938 7  21807338.28145  21807344.07345
      1222.755         952.827  
 129219083.600         nan        24589563.914 3       nan             nan                         
      4098.460         nan         
 130802730.266   101924207.7814   24890932.616 6  24890931.93341  24890939.69741
      2011.218        1567.118  
 01 12 19 14 50 26.0000000  0 10G 5G29G17G10G 6G30G24G25G22G 1      
 123693296.884    96384398.0284   23538051.908 6  23538051.43842  23538058.88442
     -3030.154       -2361.197  
 128053669.630        nan         24367809.917 3        nan            nan                        
     -2375.586        nan          
 134873376.521   105096146.0644   25665549.101 6  25665547.18041  25665562.00541
      4128.171        3216.861  
 132289919.527   103083041.9514   25173926.132 6  25173924.60042  25173932.94142
      3346.402        2607.576  
 108581449.634    84608939.5764   20662360.584 8  20662360.18645  20662365.78845
      1183.080         921.890  
 109195784.818    85087639.3214   20779266.030 8  20779266.13846  20779270.46446
     -1526.374       -1189.386  
 121516655.636    94688323.6714   23123850.165 7  23123849.77543  23123855.34543
     -1592.493       -1240.877  
 114597127.482    89296478.8724   21807106.049 7  21807105.62144  21807111.33344
      1222.272         952.415  
 129214985.616        nan         24588782.765 3         nan            nan           
      4098.954        nan          
 130800719.322   101922640.8074   24890550.954 6  24890548.33141  24890557.91641
      2010.891        1566.878  
 01 12 19 14 50 27.0000000  0 10G 5G29G17G10G 6G30G24G25G22G 1      
 123696327.089    96386759.2274   23538628.208 7  23538628.03042  23538635.29042
     -3030.593       -2361.473  
 128056045.530      nan           24368258.524 3         nan             nan          
     -2376.894      nan            
 134869248.317   105092929.2764   25664763.797 6  25664761.26341  25664778.04941
      4127.760        3216.396  
 132286573.230   103080434.4574   25173289.488 6  25173287.74842  25173296.05642
      3345.855        2607.155  
 108580266.729    84608017.8344   20662135.631 8  20662135.12045  20662140.73245
      1182.138         921.150  
 109197311.439    85088828.8964   20779556.608 8  20779556.66746  20779560.95646
     -1527.362       -1190.152  
 121518248.446    94689564.8284   23124153.680 7  23124153.08743  23124158.45743
     -1593.442       -1241.670  
 114595905.576    89295526.7444   21806873.539 7  21806873.08744  21806878.55244
      1221.172         951.558  
 129210887.766         nan        24588005.385 3      nan             nan                          
      4096.569         nan         
 130798708.877   101921074.2264   24890168.557 6  24890165.65241  24890174.13541
      2009.721        1566.001  
 01 12 19 14 50 28.0000000  0 10G 5G29G17G10G 6G30G24G25G22G 1      
 123699357.952    96389120.9394   23539205.154 6  23539204.60842  23539212.20642
     -3031.038       -2361.854  
 128058422.113        nan         24368710.590 3      nan             nan             
     -2376.357        nan          
 134865120.558   105089712.8174   25663978.484 6  25663976.75541  25663992.34741
      4127.620        3216.515  
 132283227.699   103077827.5634   25172652.152 6  25172651.38342  25172659.43442
      3345.060        2606.537  
 108579084.821    84607096.8694   20661910.627 8  20661910.06445  20661915.86945
      1181.507         920.666  
 109198839.004    85090019.2064   20779847.126 8  20779847.29446  20779851.60246
     -1527.907       -1190.578  
 121519842.275    94690806.7734   23124456.265 7  23124456.02843  23124461.94643
     -1594.283       -1242.308  
 114594684.753    89294575.4554   21806641.422 7  21806640.93145  21806646.40545
      1220.386         950.954  
 129206790.443         nan        24587225.762 3        nan         nan               
      4097.072         nan         
 130796699.452   101919508.4464   24889784.392 6  24889783.04641  24889791.57541
      2008.976        1565.438  
 01 12 19 14 50 29.0000000  0 10G 5G29G17G10G 6G30G24G25G22G 1      
 123702389.152    96391482.9174   23539782.309 6  23539782.06842  23539790.00742
     -3031.487       -2362.173  
 128060799.269       nan          24369160.655 3       nan            nan             
     -2377.666       nan           
 134860992.967   105086496.4704   25663192.888 6  25663190.53741  25663204.38141
      4126.932        3215.884  
 132279882.578   103075220.9814   25172015.112 6  25172014.40242  25172022.90842
      3344.582        2606.107  
 108577903.577    84606176.4194   20661685.503 8  20661685.25245  20661691.14145
      1180.641         919.983  
 109200367.226    85091210.0314   20780137.879 8  20780138.11546  20780142.55246
     -1528.901       -1191.348  
 121521436.815    94692049.2764   23124759.682 7  23124759.49443  23124765.38143
     -1595.195       -1243.004  
 114593464.706    89293624.7684   21806409.595 7  21806408.99645  21806414.18645
      1219.287         950.103  
 129202693.284         nan        24586442.942 3      nan              nan                
      4096.477         nan         
 130794690.764   101917943.2234   24889403.535 6  24889401.85041  24889409.17941
      2007.954        1564.632  
 01 12 19 14 50 30.0000000  0 10G 5G29G17G10G 6G30G24G25G22G 1      
 123705420.796    96393845.2124   23540359.479 6  23540358.85842  23540366.85742
     -3031.648       -2362.307  
 128063176.844       nan          24369616.346 4   nan                 nan                
     -2378.070       nan           
 134856865.567   105083280.2944   25662407.391 6  25662404.63741  25662419.70841
      4127.509        3216.270  
 132276537.957   103072614.7804   25171378.099 6  25171378.69042  25171385.88142
      3344.600        2606.191  
 108576723.106    84605256.5734   20661460.917 8  20661460.69445  20661466.32545
      1180.385         919.779  
 109201896.160    85092401.4074   20780428.900 8  20780429.09746  20780433.38146
     -1528.969       -1191.404  
 121523032.134    94693292.3824   23125063.245 7  23125063.01843  23125068.87843
     -1595.414       -1243.177  
 114592245.518    89292674.7514   21806177.497 8  21806176.91045  21806182.39245
      1219.066         949.913  
 129198596.569         nan        24585664.411 3        nan            nan                
      4096.874         nan         
 130792682.856   101916378.6194   24889021.280 6  24889020.60241  24889028.64641
      2007.675        1564.374  
 01 12 19 14 50 31.0000000  0 10G 5G29G17G10G 6G30G24G25G22G 1      
 123708452.567    96396207.6304   23540936.291 6  23540935.74242  23540943.77042
     -3032.234       -2362.757  
 128065554.812                    24370068.827 4                                
     -2378.140                  
 134852738.141   105080064.1424   25661621.262 6  25661620.82841  25661634.17641
      4127.028        3215.780  
 132273193.576   103070008.7724   25170740.943 6  25170742.09142  25170749.55042
      3343.741        2605.520  
 108575543.126    84604337.1084   20661236.557 8  20661236.12545  20661241.71445
      1179.306         918.961  
 109203425.555    85093593.1424   20780719.989 8  20780720.17946  20780724.40645
     -1530.008       -1192.204  
 121524627.976    94694535.8914   23125367.287 7  23125366.81043  23125372.51143
     -1596.608       -1244.097  
 114591026.930    89291725.2054   21805945.245 8  21805944.94545  21805950.54845
      1217.901         949.025  
 129194499.868                    24584886.264 3                                
      4096.080                  
 130790675.487   101914814.4344   24888638.877 6  24888637.63041  24888646.55041
      2006.742        1563.723  
 01 12 19 14 50 32.0000000  0 10G 5G29G17G10G 6G30G24G25G22G 1      
 123711484.503    96398570.1674   23541513.261 6  23541513.17942  23541520.74442
     -3032.184       -2362.739  
 128067932.999                    24370519.218 4                                
     -2378.717                  
 134848610.645   105076847.8964   25660835.918 6  25660835.49841  25660849.61141
      4127.373        3216.292  
 132269849.409   103067402.9244   25170105.040 6  25170105.82842  25170114.07742
      3344.068        2605.729  
 108574363.615    84603418.0084   20661011.960 8  20661011.61145  20661017.32645
      1179.068         918.755  
 109204955.377    85094785.2084   20781011.317 8  20781011.47146  20781015.48946
     -1530.176       -1192.339  
 121526224.294    94695779.7724   23125670.895 7  23125670.75543  23125676.15443
     -1596.692       -1244.142  
 114589808.919    89290776.1054   21805713.269 7  21805713.31945  21805718.80545
      1217.601         948.781  
 129190403.157                    24584107.215 3                                
      4097.091                  
 130788668.617   101913250.6174   24888256.602 6  24888255.52541  24888264.50941
      2006.611        1563.616  
 01 12 19 14 50 33.0000000  0 10G 5G29G17G10G 6G30G24G25G22G 1      
 123714516.741    96400932.9454   23542090.987 7  23542090.22542  23542097.39142
     -3032.595       -2363.055  
 128070311.620                    24370971.465 4                                
     -2378.487                  
 134844483.258   105073631.7354   25660050.961 6  25660051.22741  25660065.52741
      4127.174        3216.016  
 132266505.641   103064797.4044   25169469.038 6  25169470.01142  25169478.35442
      3343.225        2605.102  
 108573184.749    84602499.4124   20660787.593 7  20660787.38945  20660793.01045
      1178.395         918.239  
 109206485.815    85095977.7584   20781302.826 8  20781302.74446  20781306.75446
     -1530.880       -1192.877  
 121527821.290    94697024.1884   23125975.037 7  23125974.71243  23125980.23943
     -1597.439       -1244.780  
 114588591.660    89289827.5974   21805481.761 8  21805481.64445  21805487.05245
      1216.710         948.102  
 129186306.766                    24583328.694 3                                
      4096.949                  
 130786662.484   101911687.4014   24887875.352 6  24887875.19941  24887881.86241
      2005.580        1562.792  
 01 12 19 14 50 34.0000000  0 10G 5G29G17G10G 6G30G24G25G22G 1      
 123717549.334    96403296.0144   23542667.904 6  23542667.05542  23542674.84942
     -3032.565       -2363.031  
 128072690.836                    24371424.851 4                                
     -2379.671                  
 134840356.009   105070415.6754   25659265.088 6  25659266.19341  25659276.69941
      4127.305        3216.006  
 132263162.269   103062192.1934   25168833.283 6  25168833.32842  25168840.63442
      3343.306        2605.157  
 108572006.555    84601581.3474   20660563.563 8  20660563.22545  20660568.85945
      1178.090         917.988  
 109208016.878    85097170.7964   20781594.208 8  20781594.15946  20781598.20345
     -1531.177       -1193.121  
 121529418.987    94698269.1524   23126279.172 7  23126278.73743  23126284.30943
     -1597.849       -1245.068  
 114587375.157    89288879.6704   21805250.444 8  21805250.19945  21805255.43544
      1216.340         947.789  
 129182210.577                    24582546.272 3                                
      4096.780                  
 130784657.019   101910124.7074   24887494.248 5  24887493.73341  24887500.73641
      2005.375        1562.559  
 01 12 19 14 50 35.0000000  0 10G 5G29G17G10G 6G30G24G25G22G 1      
 123720582.125    96405659.2164   23543244.698 7  23543243.58742  23543251.36542
     -3033.206       -2363.559  
 128075070.287                    24371878.791 4                                
     -2379.938                  
 134836228.744   105067199.6524   25658479.484 6  25658480.47241  25658493.20441
      4127.159        3215.970  
 132259819.190   103059587.1844   25168197.360 6  25168197.03942  25168203.85842
      3342.831        2604.846  
 108570828.900    84600663.6894   20660339.406 7  20660339.10645  20660344.67345
      1177.078         917.168  
 109209548.422    85098364.2064   20781885.398 8  20781885.59145  20781889.62946
     -1531.991       -1193.799  
 121531017.243    94699514.5494   23126583.122 7  23126582.67843  23126588.01943
     -1598.810       -1245.851  
 114586159.302    89287932.2524   21805018.761 7  21805018.78944  21805024.16944
      1215.396         947.038  
 129178114.589                    24581771.460 3                                
      4095.608                  
 130782652.124   101908562.4604   24887112.632 6  24887112.48141  24887119.53941
      2004.387        1561.873  
 01 12 19 14 50 36.0000000  0 10G 5G29G17G10G 6G30G24G25G22G 1      
 123723615.254    96408022.6964   23543821.935 6  23543820.83742  23543828.18942
     -3033.235       -2363.568  
 128077450.179                    24372334.084 4                                
     -2380.182                  
 134832101.660   105063983.7374   25657694.851 6  25657694.36041  25657708.39341
      4127.141        3215.896  
 132256476.590   103056982.5664   25167562.451 6  25167561.31142  25167568.11242
      3342.357        2604.442  
 108569651.942    84599746.5824   20660115.267 8  20660115.06145  20660120.76645
      1176.782         916.959  
 109211080.642    85099558.1464   20782176.605 8  20782177.03846  20782181.21346
     -1532.409       -1194.094  
 121532616.226    94700760.5114   23126887.127 7  23126886.47043  23126892.67643
     -1599.227       -1246.148  
 114584944.253    89286985.4644   21804787.576 7  21804787.50044  21804792.83145
      1214.770         946.560  
 129174018.899                    24580991.054 3                                
      4095.733                  
 130780648.019   101907000.8274   24886730.264 6  24886731.07141  24886739.10941
      2003.864        1561.427  
 01 12 19 14 50 37.0000000  0 10G 5G29G17G10G 6G30G24G25G22G 1      
 123726648.763    96410386.4584   23544399.557 6  23544397.89342  23544406.04242
     -3033.748       -2363.911  
 128079830.562                    24372783.410 4                                
     -2380.834                  
 134827974.721   105060767.8744   25656909.051 6  25656912.16841  25656922.18441
      4126.618        3215.667  
 132253134.375   103054378.2594   25166926.165 6  25166925.05942  25166931.56442
      3341.629        2603.865  
 108568475.672    84598830.0104   20659891.016 8  20659891.08345  20659897.00145
      1175.609         916.066  
 109212613.492    85100752.5774   20782468.396 8  20782468.54446  20782472.90846
     -1533.404       -1194.859  
 121534215.906    94702007.0174   23127191.942 7  23127190.77743  23127197.09043
     -1600.334       -1247.011  
 114583729.978    89286039.2814   21804556.545 7  21804556.51945  21804561.89545
      1213.636         945.679  
 129169923.299                    24580210.190 3                                
      4095.086                  
 130778644.599   101905439.7194   24886349.095 6  24886350.25541  24886357.65541
      2002.781        1560.633  
 01 12 19 14 50 38.0000000  0 10G 5G29G17G10G 6G30G24G25G22G 1      
 123729682.470    96412750.3954   23544976.635 6  23544975.27442  23544982.77142
     -3034.056       -2364.191  
 128082211.296                    24373237.178 4                                
     -2380.268                  
 134823847.774   105057552.0444   25656123.464 6  25656125.90441  25656137.92641
      4126.748        3215.585  
 132249792.482   103051774.1894   25166289.125 6  25166289.00542  25166295.72042
      3341.699        2603.915  
 108567299.934    84597913.8544   20659667.292 8  20659667.31645  20659673.17545
      1175.389         915.876  
 109214146.854    85101947.4094   20782760.315 8  20782760.40546  20782764.56046
     -1533.725       -1195.115  
 121535816.159    94703253.9664   23127496.787 7  23127495.57843  23127501.81643
     -1600.640       -1247.255  
 114582516.348    89285093.5994   21804325.934 7  21804325.58745  21804331.02345
      1213.235         945.352  
 129165827.989                    24579431.619 3                                
      4095.132                  
 130776641.755   101903879.0594   24885967.982 6  24885969.79241  24885975.93841
      2002.427        1560.401  
 01 12 19 14 50 39.0000000  0 10G 5G29G17G10G 6G30G24G25G22G 1      
 123732716.409    96415114.5104   23545553.535 6  23545552.77242  23545560.21342
     -3034.087       -2364.275  
 128084592.432                    24373690.873 4                                
     -2380.819                  
 134819720.852   105054336.2714   25655338.472 6  25655340.82141  25655351.04041
      4126.816        3215.646  
 132246450.911   103049170.3554   25165653.138 6  25165653.38242  25165659.57542
      3341.362        2603.707  
 108566124.785    84596998.1514   20659443.995 8  20659443.85345  20659449.47245
      1174.963         915.555  
 109215680.741    85103142.6414   20783052.279 8  20783052.27246  20783056.48946
     -1534.010       -1195.339  
 121537416.998    94704501.3764   23127801.002 7  23127800.35443  23127806.75543
     -1600.905       -1247.489  
 114581303.388    89284148.4384   21804094.945 7  21804094.58445  21804100.14745
      1212.735         944.972  
 129161732.698                    24578652.498 3                                
      4095.804                  
 130774639.571   101902318.8964   24885587.088 6  24885588.34841  24885594.08541
      2002.117        1560.114  
 01 12 19 14 50 40.0000000  0 10G 5G29G17G10G 6G30G24G25G22G 1      
 123735750.324    96417478.6044   23546130.844 6  23546130.38342  23546137.43242
     -3033.543       -2363.776  
 128086973.615                    24374145.211 4                                
     -2381.815                  
 134815593.705   105051120.2854   25654553.617 6  25654553.96841  25654563.11641
      4127.307        3216.125  
 132243109.383   103046566.5624   25165017.403 6  25165016.96342  25165023.97342
      3341.553        2603.822  
 108564949.947    84596082.7014   20659220.707 8  20659220.27045  20659225.97145
      1174.721         915.339  
 109217214.938    85104338.1234   20783344.567 8  20783344.41446  20783348.35246
     -1534.335       -1195.597  
 121539018.221    94705749.0874   23128106.120 7  23128105.15143  23128111.14943
     -1601.323       -1247.799  
 114580090.873    89283203.6244   21803864.430 8  21803863.94145  21803869.28244
      1212.364         944.679  
 129157637.377                    24577873.539 3                                
      4096.050                  
 130772637.740   101900759.0334   24885206.775 6  24885207.95941  24885213.18841
      2001.817        1559.855  
 01 12 19 14 50 41.0000000  0 10G 5G29G17G10G 6G30G24G25G22G 1      
 123738784.703    96419843.0404   23546708.432 6  23546707.74642  23546714.87842
     -3034.080       -2364.208  
 128089355.417                    24374597.947 4                                
     -2381.459                  
 134811466.809   105047904.5294   25653767.867 6  25653768.45341  25653776.48441
      4127.318        3216.119  
 132239768.391   103043963.1974   25164381.781 6  25164380.68642  25164388.31242
      3341.290        2603.558  
 108563775.869    84595167.8354   20658997.367 8  20658997.19745  20659002.60945
      1174.279         915.033  
 109218749.831    85105534.1444   20783636.669 8  20783636.55846  20783640.41346
     -1534.695       -1195.854  
 121540620.187    94706997.3724   23128410.689 7  23128409.85043  23128415.61843
     -1601.841       -1248.159  
 114578879.201    89282259.4624   21803633.767 7  21803633.36045  21803638.86944
      1211.693         944.181  
 129153542.426                    24577094.277 3                                
      4094.926                  
 130770636.689   101899199.7764   24884825.564 6  24884826.98141  24884834.19541
      2001.508        1559.654  
 01 12 19 14 50 42.0000000  0 10G 5G29G17G10G 6G30G24G25G22G 1      
 123741819.413    96422207.7474   23547285.795 6  23547285.29042  23547293.05442
     -3035.227       -2365.097  
 128091737.613                    24375048.142 4                                
     -2382.515                  
 134807340.018   105044688.8294   25652982.931 6  25652983.49941  25652990.67141
      4126.380        3215.391  
 132236427.820   103041360.1384   25163746.021 6  25163745.08142  25163753.18242
      3339.791        2602.416  
 108562602.454    84594253.4864   20658774.003 8  20658773.78245  20658779.25145
      1172.771         913.839  
 109220285.349    85106730.6514   20783928.680 8  20783928.69646  20783932.62546
     -1536.232       -1197.076  
 121542222.873    94708246.2174   23128715.605 7  23128715.21943  23128720.34743
     -1603.398       -1249.414  
 114577668.303    89281315.9084   21803403.306 7  21803403.05345  21803408.54745
      1210.053         942.889  
 129149447.723                    24576315.381 3                                
      4094.190                  
 130768636.376   101897641.0754   24884444.960 6  24884444.72641  24884453.26941
      1999.375        1557.863  
 01 12 19 14 50 43.0000000  0 10G 5G29G17G10G 6G30G24G25G22G 1      
 123744854.554    96424572.7954   23547863.434 6  23547862.51842  23547870.42742
     -3036.059       -2365.808  
 128094120.349                    24375502.936 4                                
     -2382.721                  
 134803213.466   105041473.3474   25652197.778 6  25652197.43341  25652204.15241
      4125.768        3214.817  
 132233087.745   103038757.4914   25163110.437 6  25163109.36642  25163117.58542
      3339.159        2601.907  
 108561429.853    84593339.7714   20658550.832 8  20658550.52045  20658556.05745
      1171.452         912.817  
 109221821.619    85107927.7434   20784220.860 8  20784221.15746  20784225.00946
     -1537.357       -1197.951  
 121543826.335    94709495.6644   23129020.677 7  23129020.09343  23129025.56043
     -1604.571       -1250.313  
 114576458.285    89280373.0314   21803173.173 7  21803172.97445  21803178.47045
      1208.930         942.022  
 129145353.362                    24575536.359 3                                
      4093.055                  
 130766636.857   101896083.0204   24884064.240 6  24884064.39141  24884072.20341
      1998.339        1557.159  
 01 12 19 14 50 44.0000000  0 10G 5G29G17G10G 6G30G24G25G22G 1      
 123747890.434    96426938.4244   23548441.217 6  23548440.83642  23548448.46142
     -3036.043       -2365.749  
 128096504.075                    24375956.435 4                                
     -2383.395                  
 134799087.481   105038258.2884   25651412.600 6  25651414.27341  25651420.88041
      4126.055        3215.242  
 132229748.505   103036155.5134   25162475.006 6  25162474.12642  25162482.27042
      3339.160        2601.941  
 108560258.276    84592426.8584   20658328.023 8  20658327.67945  20658333.15145
      1171.358         912.744  
 109223358.932    85109125.6504   20784513.772 8  20784513.61446  20784517.44346
     -1537.600       -1198.129  
 121545430.904    94710745.9804   23129326.440 7  23129325.46943  23129331.21143
     -1604.915       -1250.579  
 114575249.442    89279431.0804   21802943.061 7  21802942.94244  21802948.18345
      1208.480         941.672  
 129141259.555                    24574754.777 3                                
      4093.900                  
 130764638.458   101894525.8384   24883684.068 6  24883683.93241  24883692.22741
      1998.141        1557.004  
 01 12 19 14 50 45.0000000  0 10G 5G29G17G10G 6G30G24G25G22G 1      
 123750926.666    96429304.3214   23549019.768 6  23549018.40742  23549026.29742
     -3036.636       -2366.226  
 128098888.250                    24376409.333 4                                
     -2385.101                  
 134794961.604   105035043.3874   25650627.515 6  25650628.85741  25650637.43141
      4125.495        3214.728  
 132226409.724   103033553.8774   25161840.103 6  25161839.01442  25161846.32442
      3338.234        2601.193  
 108559087.431    84591514.5144   20658105.279 7  20658105.07845  20658110.37245
      1170.225         911.880  
 109224896.890    85110324.0634   20784806.532 8  20784806.40446  20784810.17146
     -1538.486       -1198.820  
 121547036.200    94711996.8674   23129632.317 7  23129631.44143  23129636.51543
     -1605.884       -1251.342  
 114574041.402    89278489.7584   21802713.247 7  21802713.07544  21802718.21845
      1207.346         940.783  
 129137166.114                    24573977.444 3                                
      4094.450                  
 130762640.826   101892969.2414   24883304.127 6  24883303.89841  24883311.80041
      1996.811        1555.961  
 01 12 19 14 50 46.0000000  0 10G 5G29G17G10G 6G30G24G25G22G 1      
 123753963.243    96431670.4894   23549596.980 6  23549595.98342  23549604.43042
     -3037.142       -2366.596  
 128101272.792                    24376865.698 4                                
     -2384.990                  
 134790835.874   105031828.5494   25649842.711 6  25649844.97741  25649853.27241
      4125.278        3214.459  
 132223071.339   103030952.5274   25161205.404 6  25161204.29742  25161210.82942
      3337.963        2601.013  
 108557917.242    84590602.6794   20657882.646 8  20657882.37845  20657887.62045
      1169.465         911.277  
 109226435.472    85111522.9554   20785099.130 8  20785099.14046  20785102.92546
     -1539.237       -1199.389  
 121548642.170    94713248.2774   23129937.653 7  23129937.31143  23129942.37443
     -1606.626       -1251.945  
 114572834.120    89277549.0164   21802483.529 7  21802483.05345  21802488.43245
      1206.594         940.204  
 129133072.939                    24573198.730 3                                
      4092.000                  
 130760643.881   101891413.1734   24882924.336 6  24882923.19741  24882932.09741
      1996.157        1555.368  
 01 12 19 14 50 47.0000000  0 10G 5G29G17G10G 6G30G24G25G22G 1      
 123757000.032    96434036.8114   23550174.611 7  23550173.71942  23550181.95642
     -3036.700       -2366.230  
 128103657.714                    24377319.690 4                                
     -2384.793                  
 134786710.157   105028613.6744   25649057.298 6  25649060.29341  25649066.76641
      4126.174        3215.088  
 132219733.249   103028351.4254   25160570.365 6  25160568.96142  25160576.13042
      3337.902        2600.934  
 108556747.582    84589691.2544   20657659.811 7  20657659.74045  20657665.05745
      1169.592         911.354  
 109227974.558    85112722.2414   20785391.938 8  20785391.94346  20785395.73946
     -1539.094       -1199.306  
 121550248.737    94714500.1394   23130242.757 7  23130242.82343  23130248.13243
     -1606.758       -1252.025  
 114571627.490    89276608.7854   21802253.850 8  21802253.49645  21802258.58845
      1206.567         940.178  
 129128979.706                    24572417.046 3                                
      4093.807                  
 130758647.504   101889857.5484   24882544.555 6  24882544.13541  24882551.81941
      1996.274        1555.566  
 01 12 19 14 50 48.0000000  0 10G 5G29G17G10G 6G30G24G25G22G 1      
 123760037.112    96436403.3584   23550752.680 6  23550751.62042  23550758.98642
     -3037.116       -2366.552  
 128106043.284                    24377771.542 4                                
     -2386.074                  
 134782584.539   105025398.9034   25648272.084 6  25648274.56341  25648282.36041
      4125.885        3214.974  
 132216395.549   103025750.6314   25159935.072 6  25159933.77442  25159940.67542
      3337.691        2600.748  
 108555578.575    84588780.3424   20657437.171 7  20657437.25345  20657442.57945
      1168.828         910.774  
 109229514.248    85113922.0044   20785685.023 8  20785684.84446  20785688.79046
     -1539.772       -1199.818  
 121551855.943    94715752.5024   23130548.079 7  23130548.71943  23130554.25343
     -1607.430       -1252.521  
 114570421.596    89275669.1374   21802024.148 7  21802024.02245  21802029.20645
      1205.765         939.561  
